[
{ "id": null, "Name": "Sepesca", "Type": "Ruins", "zoom": 7,"coordinates": [ 10.583292176051156, 5.649984818903119 ] },
{ "id": null, "Name": "The Wuyun Gate", "Type": null, "zoom": 7,"coordinates": [ 21.402962760812539, 0.165393285650819 ] },
{ "id": null, "Name": "Herethis Mines", "Type": null, "zoom": 7,"coordinates": [ 19.804215431281495, 3.729637621464081 ] },
{ "id": null, "Name": "Deepriver Mine", "Type": null, "zoom": 7,"coordinates": [ 30.714555714129798, 4.121182685037788 ] },
{ "id": null, "Name": "Ghor Veles", "Type": null, "zoom": 7,"coordinates": [ 33.364331380669441, 5.432007463091602 ] },
{ "id": null, "Name": "Olc Skerry", "Type": null, "zoom": 7,"coordinates": [ 33.060865452379197, 8.418556293955129 ] },
{ "id": null, "Name": "Blooming Grove", "Type": "Forest", "zoom": 7,"coordinates": [ 24.133045874227047, 10.516912163963955 ] },
{ "id": null, "Name": "Molaesmyr", "Type": "Ruins", "zoom": 7,"coordinates": [ 24.406905370489277, 11.977989584563186 ] },
{ "id": null, "Name": "Uraliss", "Type": null, "zoom": 7,"coordinates": [ 27.656134185517484, 13.454718322094187 ] },
{ "id": null, "Name": "Cinderrest Sanctum", "Type": null, "zoom": 7,"coordinates": [ 27.001832037690775, 14.795889692978593 ] },
{ "id": null, "Name": "Kravaraad", "Type": null, "zoom": 7,"coordinates": [ 26.445231115557714, 15.066295105504194 ] },
{ "id": null, "Name": "Mutalos", "Type": null, "zoom": 7,"coordinates": [ 17.852457659861486, 19.539826984988576 ] },
{ "id": null, "Name": "Fortress of the Dead Jarl", "Type": null, "zoom": 7,"coordinates": [ 18.926184261423192, 19.373044084562157 ] },
{ "id": null, "Name": "Aeor Crash Site", "Type": null, "zoom": 7,"coordinates": [ 18.753480074591106, 18.650647143070287 ] },
{ "id": null, "Name": "Shattengrod", "Type": "Ruins", "zoom": 7,"coordinates": [ 19.043623108469024, 7.132758202972485 ] },
{ "id": null, "Name": "The Pallid Grove", "Type": null, "zoom": 7,"coordinates": [ 12.573630829205785, 7.691332887240799 ] },
{ "id": null, "Name": "Draconia", "Type": "Ruins", "zoom": 7,"coordinates": [ 26.419572207799675, -0.987299221337637 ] },
{ "id": null, "Name": "The Miskath Pit", "Type": null, "zoom": 7,"coordinates": [ 32.310265300372436, 0.086427380223862 ] },
{ "id": null, "Name": "Incanter's Rest", "Type": null, "zoom": 7,"coordinates": [ 32.510602157098305, 1.969396457225364 ] },
{ "id": null, "Name": "Dumaran", "Type": null, "zoom": 7,"coordinates": [ 30.452461690594944, 2.219570807866027 ] },
{ "id": null, "Name": "Mythburrow", "Type": null, "zoom": 7,"coordinates": [ 30.711517970843232, 15.320910420948222 ] },
{ "id": null, "Name": "Vergesson Sanatorium", "Type": null, "zoom": 7,"coordinates": [ 22.311186323331889, 10.640626957798817 ] },
{ "id": null, "Name": "Rastum Den", "Type": null, "zoom": 7,"coordinates": [ 21.026267173301257, 10.269559676376758 ] },
{ "id": null, "Name": "Diver's Grave", "Type": null, "zoom": 7,"coordinates": [ 9.453105183409019, -1.555071945556393 ] },
{ "id": null, "Name": "Tussoa", "Type": "City", "zoom": 7,"coordinates": [ 15.365609889579023, 3.221950919745561 ] },
{ "id": null, "Name": "Port Damali", "Type": "City", "zoom": 7,"coordinates": [ 15.146337252369017, 1.206863139815494 ] },
{ "id": null, "Name": "Palma Flora", "Type": "Settlement", "zoom": 7,"coordinates": [ 14.797721515235105, -0.354135988879642 ] },
{ "id": null, "Name": "Gwardan", "Type": "City", "zoom": 7,"coordinates": [ 13.167887432074034, 4.916178992568311 ] },
{ "id": null, "Name": "Vol'antim", "Type": "Settlement", "zoom": 7,"coordinates": [ 17.129228037468256, 5.004998288653372 ] },
{ "id": null, "Name": "Pride's Call", "Type": "City", "zoom": 7,"coordinates": [ 17.61440344233295, 6.479953724266101 ] },
{ "id": null, "Name": "Kamordah", "Type": "City", "zoom": 7,"coordinates": [ 18.942251918804782, 5.170424227611813 ] },
{ "id": null, "Name": "Deastok", "Type": "City", "zoom": 7,"coordinates": [ 18.92448805958778, 3.72988626923205 ] },
{ "id": null, "Name": "Felderwin", "Type": "Settlement", "zoom": 7,"coordinates": [ 24.239212689078272, 4.287227352165782 ] },
{ "id": null, "Name": "Grimgolir", "Type": "City", "zoom": 7,"coordinates": [ 26.214331785770263, 8.370694489677058 ] },
{ "id": null, "Name": "Hupperdook", "Type": "City", "zoom": 7,"coordinates": [ 23.791785485049797, 7.455855740000795 ] },
{ "id": null, "Name": "Bladegarden", "Type": "City", "zoom": 7,"coordinates": [ 25.83129857140333, 6.425551905413865 ] },
{ "id": null, "Name": "Ashguard Garrison", "Type": "Fortress", "zoom": 7,"coordinates": [ 26.433049302379697, 5.828242139241687 ] },
{ "id": null, "Name": "Rockguard Garrison", "Type": "Fortress", "zoom": 7,"coordinates": [ 26.796514515577957, 7.437450022589288 ] },
{ "id": null, "Name": "Urzin", "Type": "Settlement", "zoom": 7,"coordinates": [ 27.708161321801164, 6.929375892952586 ] },
{ "id": null, "Name": "Jigow", "Type": "City", "zoom": 7,"coordinates": [ 29.630266401142443, 7.340165137345973 ] },
{ "id": null, "Name": "Bazzoxan", "Type": "Town", "zoom": 7,"coordinates": [ 30.908154023566365, 5.546015356426809 ] },
{ "id": null, "Name": "New Haxon", "Type": "City", "zoom": 7,"coordinates": [ 33.006509893572058, 0.736450473420563 ] },
{ "id": null, "Name": "Rotthold", "Type": "City", "zoom": 7,"coordinates": [ 31.991749435801264, -0.660232957515478 ] },
{ "id": null, "Name": "Igrathad", "Type": "The Many Hosts", "zoom": 7,"coordinates": [ 26.989557704412398, 1.843916071482044 ] },
{ "id": null, "Name": "Charis", "Type": "Village", "zoom": 7,"coordinates": [ 27.749517806540045, -0.279420225551309 ] },
{ "id": null, "Name": "Xarzith Kitril", "Type": "City", "zoom": 7,"coordinates": [ 26.299542797951606, -1.803781394611139 ] },
{ "id": null, "Name": "Trostenwald", "Type": "City", "zoom": 7,"coordinates": [ 22.062862374694127, 2.129803180756016 ] },
{ "id": null, "Name": "Alfield", "Type": "Town", "zoom": 7,"coordinates": [ 22.242721449266387, 3.017996141606656 ] },
{ "id": null, "Name": "Zadash", "Type": "City", "zoom": 7,"coordinates": [ 21.755880682600157, 4.636727812756983 ] },
{ "id": null, "Name": "Berleben", "Type": "Town", "zoom": 7,"coordinates": [ 22.308503240429452, 6.266006775317412 ] },
{ "id": null, "Name": "Druvenlode", "Type": "City", "zoom": 7,"coordinates": [ 21.340372913102247, 8.094574033468733 ] },
{ "id": null, "Name": "Rexxentrum", "Type": "City", "zoom": 10,"coordinates": [ 21.407028610478307, 8.861350996475858 ] },
{ "id": null, "Name": "Odessloe", "Type": "City", "zoom": 7,"coordinates": [ 21.005080070381137, 9.23756734996344 ] },
{ "id": null, "Name": "Nogvurot", "Type": "City", "zoom": 7,"coordinates": [ 23.359901657836492, 9.130151513760568 ] },
{ "id": null, "Name": "Shadycreek Run", "Type": "City", "zoom": 7,"coordinates": [ 23.787344520245881, 9.858469741658126 ] },
{ "id": null, "Name": "Boroftkrah", "Type": "Settlement", "zoom": 7,"coordinates": [ 27.072825794492442, 10.964755708442979 ] },
{ "id": null, "Name": "Palebank Village", "Type": "Settlement", "zoom": 7,"coordinates": [ 25.873765297343933, 15.849816993121024 ] },
{ "id": null, "Name": "Allowak's Sanctuary", "Type": "Settlement", "zoom": 7,"coordinates": [ 18.495842435878572, 17.500375578701608 ] },
{ "id": null, "Name": "Balenpost", "Type": "Outpost", "zoom": 7,"coordinates": [ 19.508382411248217, 16.123676489383225 ] },
{ "id": null, "Name": "Syrinlya", "Type": "Outpost", "zoom": 7,"coordinates": [ 21.663730662912279, 17.268705248079758 ] },
{ "id": null, "Name": "Uthodurn", "Type": "City", "zoom": 7,"coordinates": [ 26.685721695721522, 14.036423031384516 ] },
{ "id": null, "Name": "Bysaes Tyl", "Type": "City", "zoom": 7,"coordinates": [ 20.046479313363566, 11.931405714168518 ] },
{ "id": null, "Name": "Icehaven", "Type": "City", "zoom": 7,"coordinates": [ 17.361175928391969, 9.904845441827778 ] },
{ "id": null, "Name": "Yrrosa", "Type": "Town", "zoom": 7,"coordinates": [ 19.190113266943467, 8.299436665090354 ] },
{ "id": null, "Name": "Blumenthal", "Type": "Town", "zoom": 7,"coordinates": [ 21.783636712627157, 8.444878262429627 ] },
{ "id": null, "Name": "Othe", "Type": "City", "zoom": 7,"coordinates": [ 17.857592525417324, 2.263749155660293 ] },
{ "id": null, "Name": "Feolinn", "Type": "City", "zoom": 7,"coordinates": [ 18.312051257052541, -0.081080260985214 ] },
{ "id": null, "Name": "Port Zoon", "Type": "City", "zoom": 7,"coordinates": [ 18.489689849222653, -1.465180958310685 ] },
{ "id": null, "Name": "Nicodranas", "Type": "City", "zoom": 7,"coordinates": [ 20.269036414126639, -2.205341759019484 ] },
{ "id": null, "Name": "Brokenbank", "Type": "Settlement", "zoom": 7,"coordinates": [ 13.831857930362128, -2.519910099320747 ] },
{ "id": null, "Name": "Darktow", "Type": "Town", "zoom": 7,"coordinates": [ 8.318400125882189, -5.077905826570404 ] },
{ "id": null, "Name": "Talonstadt", "Type": "Settlement", "zoom": 7,"coordinates": [ 25.423516230262873, 4.630043235526204 ] },
{ "id": null, "Name": "Asarius", "Type": "City", "zoom": 7,"coordinates": [ 27.74910146608995, 4.343601005651657 ] },
{ "id": null, "Name": "Rosohna", "Type": "City", "zoom": 7,"coordinates": [ 31.589055700167094, 3.7100233602435 ] },
{ "id": null, "Name": "Tomb of the Worm", "Type": "Settlement", "zoom": 7,"coordinates": [ 16.202392514814502, 18.131547701506467 ] },
{ "id": null, "Name": "Vurmas", "Type": "Settlement", "zoom": 7,"coordinates": [ 14.651015476528702, 18.6003162086221 ] },
{ "id": null, "Name": "The Emerald Gulch", "Type": "Waterbody", "zoom": 6,"coordinates": [ 30.501890554068925, 9.628433932804858 ] },
{ "id": null, "Name": "Torrid Reef", "Type": "Physical Feature", "zoom": 7,"coordinates": [ 9.854364857493211, 2.804151350268481 ] },
{ "id": null, "Name": "Mother's Sigh Reef", "Type": "Physical Feature", "zoom": 7,"coordinates": [ 16.728978374477293, 0.104044749282482 ] },
{ "id": null, "Name": "Dragshallow Reefs", "Type": "Waterbody", "zoom": 7,"coordinates": [ 9.268157503331778, -4.538243792763617 ] },
{ "id": null, "Name": "Lucidian Ocean", "Type": "Waterbody", "zoom": 5,"coordinates": [ 7.539141872875834, -0.25123243505778 ] },
{ "id": null, "Name": "Deep Row Reef", "Type": "Physical Feature", "zoom": 7,"coordinates": [ 12.809086773923065, -4.585614084008985 ] },
{ "id": null, "Name": "Southern Gate Reef", "Type": "Physical Feature", "zoom": 7,"coordinates": [ 15.035490462455376, -6.113305976672112 ] },
{ "id": null, "Name": "Inkclaw Reef", "Type": "Physical Feature", "zoom": 7,"coordinates": [ 20.246222499445903, -5.37906646236888 ] },
{ "id": null, "Name": "Ashkeeper Peaks", "Type": "Mountain", "zoom": 6,"coordinates": [ 23.492937851755233, 0.131523219008896 ] },
{ "id": null, "Name": "Penumbra Range", "Type": "Mountain", "zoom": 6,"coordinates": [ 31.546627524267926, 3.035914200988805 ] },
{ "id": null, "Name": "Vermaloc Wildwood", "Type": "Forest", "zoom": 7,"coordinates": [ 29.801328356197011, 3.948532468263655 ] },
{ "id": null, "Name": "The Brokenveil Marsh", "Type": "Swamp", "zoom": 7,"coordinates": [ 27.070135001581473, 5.827060580463423 ] },
{ "id": null, "Name": "Lotusden Greenwood", "Type": "Forest", "zoom": 7,"coordinates": [ 27.689649591774266, -1.000922806075524 ] },
{ "id": null, "Name": "Whitedawn Lagoon", "Type": "Waterbody", "zoom": 7,"coordinates": [ 25.058377945254524, -2.95938828475122 ] },
{ "id": null, "Name": "Quoraska Jungle", "Type": "Forest", "zoom": 7,"coordinates": [ 22.057395978780423, -2.259936328081433 ] },
{ "id": null, "Name": "Cyrios End Forest", "Type": "Forest", "zoom": 7,"coordinates": [ 19.919071425532522, -0.268163613373891 ] },
{ "id": null, "Name": "Plumgroves", "Type": "Forest", "zoom": 7,"coordinates": [ 18.213740940699285, 0.551194393010827 ] },
{ "id": null, "Name": "Cyrengreen Forest", "Type": "Forest", "zoom": 7,"coordinates": [ 20.325419705121689, 2.389753821971648 ] },
{ "id": null, "Name": "Cyrios Mountains", "Type": "Mountain", "zoom": 6,"coordinates": [ 17.254492542980604, 4.115068648424042 ] },
{ "id": null, "Name": "Pearlbow Wilderness", "Type": "Forest", "zoom": 7,"coordinates": [ 20.898304164870396, 9.870559034736258 ] },
{ "id": null, "Name": "Savalirwood", "Type": "Forest", "zoom": 7,"coordinates": [ 24.115783165551889, 11.6957955692844 ] },
{ "id": null, "Name": "Rime Plains", "Type": "Plains", "zoom": 7,"coordinates": [ 27.246663352550417, 12.341955948303404 ] },
{ "id": null, "Name": "Crystalsands Tundra", "Type": "Plains", "zoom": 7,"coordinates": [ 24.328949476155955, 15.486159029714527 ] },
{ "id": null, "Name": "Dunrock Mountains", "Type": "Mountain", "zoom": 7,"coordinates": [ 25.987649830544743, 9.850574693117181 ] },
{ "id": null, "Name": "Silberquel Ridge", "Type": "Mountain", "zoom": 7,"coordinates": [ 22.636941885735581, 7.499083829264991 ] },
{ "id": null, "Name": "Marrow Valley", "Type": "Plains", "zoom": 7,"coordinates": [ 24.002538563043423, 5.44735808969993 ] },
{ "id": null, "Name": "Ounterloch", "Type": "Waterbody", "zoom": 7,"coordinates": [ 22.631113119429973, 6.297108948963804 ] },
{ "id": null, "Name": "Lebenda Swamp", "Type": "Swamp", "zoom": 7,"coordinates": [ 22.817633641208619, 6.695130419545009 ] },
{ "id": null, "Name": "Zemni Fields", "Type": "Plains", "zoom": 7,"coordinates": [ 20.616025339500048, 6.470306576329709 ] },
{ "id": null, "Name": "Velvin Thicket", "Type": "Forest", "zoom": 7,"coordinates": [ 16.599172674052987, 7.935824961733302 ] },
{ "id": null, "Name": "Saltwallow Bog", "Type": "Swamp", "zoom": 7,"coordinates": [ 16.519235307576437, 8.542016657513871 ] },
{ "id": null, "Name": "The Barren Shores", "Type": "Physical Feature", "zoom": 7,"coordinates": [ 11.403243853076706, 9.074932434024261 ] },
{ "id": null, "Name": "Stonecage Cliffs", "Type": "Physical Feature", "zoom": 7,"coordinates": [ 7.088291425144139, 9.627832552153787 ] },
{ "id": null, "Name": "Lushgut Forest", "Type": "Forest", "zoom": 6,"coordinates": [ 9.186647295153813, 7.296326029920837 ] },
{ "id": null, "Name": "Doralle Woods", "Type": "Forest", "zoom": 7,"coordinates": [ 11.684689997546247, 6.283786054551096 ] },
{ "id": null, "Name": "Copia Wildwood", "Type": "Forest", "zoom": 7,"coordinates": [ 14.649034004385287, 3.552592699935355 ] },
{ "id": null, "Name": "Hearthstar Peaks", "Type": "Mountain", "zoom": 7,"coordinates": [ 13.483280743268786, 1.720694718180897 ] },
{ "id": null, "Name": "Vezdaweald", "Type": "Forest", "zoom": 7,"coordinates": [ 13.989550730953674, 1.394283805068284 ] },
{ "id": null, "Name": "Raska Lake", "Type": "Waterbody", "zoom": 7,"coordinates": [ 20.564399123650574, -2.855719512602037 ] },
{ "id": null, "Name": "Gehem Basin", "Type": "Waterbody", "zoom": 7,"coordinates": [ 24.408054161731656, 1.00791986709821 ] },
{ "id": null, "Name": "Ustaloch", "Type": "Waterbody", "zoom": 7,"coordinates": [ 22.28305250289656, 2.047105631293474 ] },
{ "id": null, "Name": "Fevergulf Lake", "Type": "Waterbody", "zoom": 7,"coordinates": [ 28.358292355114536, 0.974612631066159 ] },
{ "id": null, "Name": "Sorrowseep Waters", "Type": "Waterbody", "zoom": 7,"coordinates": [ 27.419028299015306, 2.94640100415446 ] },
{ "id": null, "Name": "Erdeloch", "Type": "Waterbody", "zoom": 7,"coordinates": [ 20.444493073935778, 9.128224011675297 ] },
{ "id": null, "Name": "Kaltenloch", "Type": "Waterbody", "zoom": 7,"coordinates": [ 17.939788924336934, 9.474619266407055 ] },
{ "id": null, "Name": "Far Hharom", "Type": "Plains", "zoom": 7,"coordinates": [ 34.033845374953827, 8.968349278724144 ] },
{ "id": null, "Name": "Ebonglass Massif", "Type": "Mountain", "zoom": 7,"coordinates": [ 34.453516548957531, 7.256357346682042 ] },
{ "id": null, "Name": "Tooth of Zehir", "Type": "Physical Feature", "zoom": 7,"coordinates": [ 35.865743356710261, 4.818267669138594 ] },
{ "id": null, "Name": "Whitestone", "Type": "City" , "type": "Point", "zoom": 7, "coordinates": [ 3.65772772774102, 8.679561751338804 ] },
{ "id": null, "Name": "Lyrengorn", "Type": "City" , "type": "Point", "zoom": 7, "coordinates": [ -1.81970884114327, 10.962261291939491 ] },
{ "id": null, "Name": "Terrah", "Type": "Village" , "type": "Point", "zoom": 7, "coordinates": [ -3.903497348715968, 8.757736393140201 ] },
{ "id": null, "Name": "Kraghammer", "Type": "City" , "type": "Point", "zoom": 7, "coordinates": [ -3.774943493309229, 6.624437279093294 ] },
{ "id": null, "Name": "Jorenn Village", "Type": "Town" , "type": "Point", "zoom": 7, "coordinates": [ -0.326573182736667, 6.622700064831042 ] },
{ "id": null, "Name": "Westruun", "Type": "City" , "type": "Point", "zoom": 7, "coordinates": [ 0.264079666429414, 4.075943956367879 ] },
{ "id": null, "Name": "Turst Fields", "Type": "Town" , "type": "Point", "zoom": 7, "coordinates": [ 2.52766985014531, 5.345847582074956 ] },
{ "id": null, "Name": "Drynna", "Type": "Town" , "type": "Point", "zoom": 7, "coordinates": [ 4.719165641977707, 4.194943133332222 ] },
{ "id": null, "Name": "Zephrah", "Type": "Village" , "type": "Point", "zoom": 7, "coordinates": [ 2.830813738908497, 1.865338807650705 ] },
{ "id": null, "Name": "Stilben", "Type": "City" , "type": "Point", "zoom": 7, "coordinates": [ 3.654253299216511, -0.122034308366938 ] },
{ "id": null, "Name": "Kymal", "Type": "City" , "type": "Point", "zoom": 7, "coordinates": [ -1.87008805474862, 2.332649444196811 ] },
{ "id": null, "Name": "Emon", "Type": "Metropolis" , "type": "Point", "zoom": 7, "coordinates": [ -7.49981021416559, 3.249458868744747 ] },
{ "id": null, "Name": "Emerald Outpost", "Type": "Town" , "type": "Point", "zoom": 7, "coordinates": [ -5.523449648267057, 0.814324178987533 ] },
{ "id": null, "Name": "Syngorn", "Type": "City" , "type": "Point", "zoom": 7, "coordinates": [ -2.893307255215738, -1.471849790137657 ] },
{ "id": null, "Name": "Bronbog", "Type": "Village" , "type": "Point", "zoom": 7, "coordinates": [ 0.054745347827915, -2.441215348474935 ] },
{ "id": null, "Name": "Hdar-Fye", "Type": "City" , "type": "Point", "zoom": 7, "coordinates": [ -4.371676592393195, -9.060001687659563 ] },
{ "id": null, "Name": "Ezordam-Haar", "Type": "City" , "type": "Point", "zoom": 7, "coordinates": [ -3.089612466850344, -8.875856975860726 ] },
{ "id": null, "Name": "Tz'Arrm", "Type": "City" , "type": "Point", "zoom": 7, "coordinates": [ -2.287019477689372, -10.779843807290215 ] },
{ "id": null, "Name": "Rybad-Kol", "Type": "City" , "type": "Point", "zoom": 7, "coordinates": [ -1.133509207553267, -10.10059303074922 ] },
{ "id": null, "Name": "Ortem-Vellak", "Type": "City" , "type": "Point", "zoom": 7, "coordinates": [ 0.476019806424307, -8.233087698827049 ] },
{ "id": null, "Name": "Byroden", "Type": "Town" , "type": "Point", "zoom": 7, "coordinates": [ -5.371737924015997, -4.943335756271547 ] },
{ "id": null, "Name": "O'Noa", "Type": "Ruins" , "type": "Point", "zoom": 7, "coordinates": [ -7.02730319855039, 0.365591294071715 ] },
{ "id": null, "Name": "Fort Daxio", "Type": "Town" , "type": "Point", "zoom": 7, "coordinates": [ -5.986417249157531, 7.215090128259374 ] },
{ "id": null, "Name": "Serpent's Head", "Type": "Mountain" , "type": "Point", "zoom": 7, "coordinates": [ -4.449711408319094, 5.055201429019898 ] },
{ "id": null, "Name": "The Pools of Wittebak", "Type": "Waterbody" , "type": "Point", "zoom": 7, "coordinates": [ -3.323127903035202, 7.950269141518937 ] },
{ "id": null, "Name": "Murdoon Mines", "Type": "Physical Feature" , "type": "Point", "zoom": 7, "coordinates": [ -0.461094407140111, 4.200111953705381 ] },
{ "id": null, "Name": "Gatshadow", "Type": "Mountain" , "type": "Point", "zoom": 7, "coordinates": [ -0.422414243902133, 4.510584730628991 ] },
{ "id": null, "Name": "Shadebarrow", "Type": "Ruins" , "type": "Point", "zoom": 7, "coordinates": [ 1.264420888913089, 3.784429132774447 ] },
{ "id": null, "Name": "Silvercut Crossroads", "Type": "Physical Feature" , "type": "Point", "zoom": 7, "coordinates": [ -2.093885887318966, 3.137723947409452 ] },
{ "id": null, "Name": "Throne of the Archeart", "Type": "Physical Feature" , "type": "Point", "zoom": 7, "coordinates": [ -3.188059487405555, 2.82374959781377 ] },
{ "id": null, "Name": "Torthil", "Type": "Ruins" , "type": "Point", "zoom": 7, "coordinates": [ -3.052556768188679, 1.875230563295635 ] },
{ "id": null, "Name": "The Shifting Keep", "Type": "Forest" , "type": "Point", "zoom": 7, "coordinates": [ -4.242548597208687, -1.673029744402702 ] },
{ "id": null, "Name": "Tormor Falls", "Type": null , "type": "Point", "zoom": 7, "coordinates": [ -2.938769228333478, -1.974436433942806 ] },
{ "id": null, "Name": "The Mirescar", "Type": "Forest" , "type": "Point", "zoom": 7, "coordinates": [ -4.053192233174841, -2.820459821873817 ] },
{ "id": null, "Name": "Wrettis", "Type": null , "type": "Point", "zoom": 7, "coordinates": [ -0.825447972854888, -3.405901057464678 ] },
{ "id": null, "Name": "The Ashen Gorge", "Type": "Physical Feature" , "type": "Point", "zoom": 7, "coordinates": [ 0.489623289288393, -1.92058278912584 ] },
{ "id": null, "Name": "Cavern of Axiom", "Type": "Physical Feature" , "type": "Point", "zoom": 7, "coordinates": [ -1.07734405345036, -1.24480640739039 ] },
{ "id": null, "Name": "Scar of the Cinder King", "Type": "Physical Feature" , "type": "Point", "zoom": 7, "coordinates": [ -7.206503434519004, 3.207741951097073 ] },
{ "id": null, "Name": "Daggerbay", "Type": "Waterbody" , "type": "Point", "zoom": 7, "coordinates": [ -7.793712732979703, -0.141491057772471 ] },
{ "id": null, "Name": "Ozmit Sea", "Type": "Waterbody" , "type": "Point", "zoom": 5, "coordinates": [ -12.905187501651687, 0.251227625825422 ] },
{ "id": null, "Name": "Visa Isle", "Type": "Physical Feature" , "type": "Point", "zoom": 7, "coordinates": [ -8.438032201586047, -2.781572634914011 ] },
{ "id": null, "Name": "Owlset Bay", "Type": "Waterbody" , "type": "Point", "zoom": 7, "coordinates": [ 2.489424393845463, -1.08897407899626 ] },
{ "id": null, "Name": "Ivyheart Thicket", "Type": "Forest" , "type": "Point", "zoom": 7, "coordinates": [ -3.418775787599036, 2.260556732531328 ] },
{ "id": null, "Name": "Torian Forest", "Type": "Forest" , "type": "Point", "zoom": 7, "coordinates": [ -4.200332976955475, 4.564909874165585 ] },
{ "id": null, "Name": "The Neverfields", "Type": "Plains" , "type": "Point", "zoom": 6, "coordinates": [ -1.41991226164577, 11.639243004808595 ] },
{ "id": null, "Name": "The Grey Valley", "Type": "Physical Feature" , "type": "Point", "zoom": 7, "coordinates": [ -1.219870838179538, 8.364146211314939 ] },
{ "id": null, "Name": "Mooren Lake", "Type": "Waterbody" , "type": "Point", "zoom": 7, "coordinates": [ 5.069803685688936, 3.977191273439217 ] },
{ "id": null, "Name": "Rootgarden Marsh", "Type": "Swamp" , "type": "Point", "zoom": 7, "coordinates": [ 5.710246382522678, 4.433099633897143 ] },
{ "id": null, "Name": "Dawnmist Pines", "Type": "Forest" , "type": "Point", "zoom": 7, "coordinates": [ 1.698562952234777, 5.881461568141019 ] },
{ "id": null, "Name": "K'Tawl Swamp", "Type": "Swamp" , "type": "Point", "zoom": 7, "coordinates": [ 3.638499547244511, 0.985874173700002 ] },
{ "id": null, "Name": "The Frostweald", "Type": "Forest" , "type": "Point", "zoom": 7, "coordinates": [ -0.870961378645412, -0.468690595380034 ] },
{ "id": null, "Name": "Kirmont Bay", "Type": "Waterbody" , "type": "Point", "zoom": 7, "coordinates": [ 1.203886874050851, -3.714323923401903 ] },
{ "id": null, "Name": "Vues'dal Waters", "Type": "Waterbody" , "type": "Point", "zoom": 7, "coordinates": [ -2.448032135739648, -3.069229100441035 ] },
{ "id": null, "Name": "K'Tawl Bay", "Type": "Waterbody" , "type": "Point", "zoom": 7, "coordinates": [ 4.2882464963325, 0.717601567035988 ] },
{ "id": null, "Name": "Foramere Basin", "Type": "Waterbody" , "type": "Point", "zoom": 7, "coordinates": [ -0.197953798921814, 1.14714787944022 ] },
{ "id": null, "Name": "Rifenmist Jungle", "Type": "Forest" , "type": "Point", "zoom": 6, "coordinates": [ -3.08801015421561, -6.865364020172304 ] },
{ "id": null, "Name": "Verdant Expanse", "Type": "Forest" , "type": "Point", "zoom": 6, "coordinates": [ -4.538387475526311, -2.318686085265411 ] },
{ "id": null, "Name": "Daggerbay Mountains", "Type": "Mountain" , "type": "Point", "zoom": 7, "coordinates": [ -5.735534598905621, 0.032188317640062 ] },
{ "id": null, "Name": "Stormcrest Mountains", "Type": "Mountain" , "type": "Point", "zoom": 6, "coordinates": [ -1.250885012360347, -1.602258661688679 ] },
{ "id": null, "Name": "Stormpoint Mountains", "Type": "Mountain" , "type": "Point", "zoom": 6, "coordinates": [ -1.257087847196504, -4.610633557227343 ] },
{ "id": null, "Name": "Cliffkeep Mountains", "Type": "Mountain" , "type": "Point", "zoom": 6.5, "coordinates": [ -2.863622069762515, 7.838455958950189 ] },
{ "id": null, "Name": "Umbra Hills", "Type": "Physical Feature" , "type": "Point", "zoom": 7, "coordinates": [ -0.343720417571615, 6.987116877686931 ] },
{ "id": null, "Name": "The Frigid Depths", "Type": "Waterbody" , "type": "Point", "zoom": 5, "coordinates": [ 5.107020694705914, 13.016272338436597 ] },
{ "id": null, "Name": "Wildwood", "Type": "Forest" , "type": "Point", "zoom": 7, "coordinates": [ -2.224730081637809, 6.270689454110197 ] },
{ "id": null, "Name": "Wildwood Valley", "Type": "Plains" , "type": "Point", "zoom": 7, "coordinates": [ -2.178208820366597, 4.924674294663002 ] },
{ "id": null, "Name": "The Dividing Plain", "Type": "Plains" , "type": "Point", "zoom": 7, "coordinates": [ -1.080307054365897, 1.84806821592655 ] },
{ "id": null, "Name": "Mornset Countryside", "Type": "Plains" , "type": "Point", "zoom": 7, "coordinates": [ -3.952219583508984, -5.558116578451117 ] },
{ "id": null, "Name": "The Gladepools", "Type": "Waterbody" , "type": "Point", "zoom": 7, "coordinates": [ -4.730675355447343, -4.271028349947461 ] },
{ "id": null, "Name": "Parchwood Timberlands", "Type": "Forest" , "type": "Point", "zoom": 6, "coordinates": [ 4.520156824375011, 6.308400212706239 ] },
{ "id": null, "Name": "Seashale Mountains", "Type": "Mountain" , "type": "Point", "zoom": 7, "coordinates": [ -8.667924767701303, 4.57576483512888 ] },
{ "id": null, "Name": "Ironseat Ridge", "Type": "Mountain" , "type": "Point", "zoom": 7, "coordinates": [ -2.615508676316037, 2.888593759692764 ] },
{ "id": null, "Name": "Othendin Pass", "Type": "Plains" , "type": "Point", "zoom": 7, "coordinates": [ -6.577569427914645, 6.224168192838989 ] },
{ "id": null, "Name": "Niirdal-Poc", "Type": "City", "type": "Point", "zoom": 7, "coordinates": [ -4.052684923376876, -6.815717982743069 ] } 

]

