{
"type": "FeatureCollection",
"name": "exandria_pois",
"crs": { "type": "name", "properties": { "name": "urn:ogc:def:crs:OGC:1.3:CRS84" } },
"features": [
{ "type": "Feature", "properties": { "Name": "Fort Daxio", "Type": null, "Population": null, "Info": "Nestled within the Othendin Pass, Fort Daxio is a massive\nstronghold and series of military structures under\nthe rule of the Tal’Dorei Council that trains and holds\nthe bulk of the mobile army of Emon." }, "geometry": { "type": "Point", "coordinates": [ -5.986417249157531, 7.215090128259374 ] } },
{ "type": "Feature", "properties": { "Name": "Serpent's Head", "Type": null, "Population": null, "Info": "Surrounded by ruins left by the Cinder King, Serpent's Head is a squat mountain in the southern reaches of the Cliffkeep Mountains." }, "geometry": { "type": "Point", "coordinates": [ -4.44971140831909, 5.055201429019898 ] } },
{ "type": "Feature", "properties": { "Name": "The Pools of Wittebak", "Type": null, "Population": null, "Info": "A once peaceful city occupied by thousands of rock gnomes, The Pools of Wittebak harbor now harbor hill giants and the sea hag, Mauvlettir in the dark and toxic caverns beneath the pools." }, "geometry": { "type": "Point", "coordinates": [ -3.323127903035202, 7.950269141518937 ] } },
{ "type": "Feature", "properties": { "Name": "Murdoon Mines", "Type": null, "Population": null, "Info": "An iron-rich mine at the base of the Cliffkeep Mountains." }, "geometry": { "type": "Point", "coordinates": [ -0.461094407140117, 4.200111953705381 ] } },
{ "type": "Feature", "properties": { "Name": "Gatshadow", "Type": null, "Population": null, "Info": "The monolithic mountain of Gatshadow stands unnaturally tall against the surrounding mountains. It was transformed into a place of evil as the seat of power for a priest of the Betrayer God." }, "geometry": { "type": "Point", "coordinates": [ -0.422414243902136, 4.510584730628991 ] } },
{ "type": "Feature", "properties": { "Name": "Shadebarrow", "Type": null, "Population": null, "Info": "Once a monolithic henge used as a ritual site for the hierophant druids, the Shadebarrow is now a forgotten crypt from where treasure hunters and historians seldom return." }, "geometry": { "type": "Point", "coordinates": [ 1.264420888913086, 3.784429132774448 ] } },
{ "type": "Feature", "properties": { "Name": "Silvercut Crossroads", "Type": null, "Population": null, "Info": "Marked by the crossing point between the Silvercut Roadway\nand the Wildwood Byway, the Silvercut Crossroads\nis a strange and solemn stop along those paths." }, "geometry": { "type": "Point", "coordinates": [ -2.093885887318966, 3.137723947409452 ] } },
{ "type": "Feature", "properties": { "Name": "Throne of the Archeart", "Type": null, "Population": null, "Info": "In the foothills of the Ironseat Ridge is a small rise known\nas the Throne of the Archeart: a gathering place for the\nmany nomadic centaur tribes that ride across the Dividing\nPlains." }, "geometry": { "type": "Point", "coordinates": [ -3.188059487405555, 2.82374959781377 ] } },
{ "type": "Feature", "properties": { "Name": "Torthil", "Type": "Ruins", "Population": null, "Info": "Now just a scarred patch of land, Torthil played an important role in the Scattered War, harboring the ambush that led to the death of King Warren Drassig." }, "geometry": { "type": "Point", "coordinates": [ -3.052556768188679, 1.875230563295635 ] } },
{ "type": "Feature", "properties": { "Name": "The Shifting Keep", "Type": null, "Population": null, "Info": "Built within and around a cluster of massive, living trees that form the heart of the Expanse, the Shifting Keep acts as the satellite military compound for the Syngornian scouts and rangers that patrol and defend the surrounding forest." }, "geometry": { "type": "Point", "coordinates": [ -4.242548597208687, -1.673029744402702 ] } },
{ "type": "Feature", "properties": { "Name": "Tormor Falls", "Type": null, "Population": null, "Info": "Feeding the mouth of the rushing Feshun River that\ncarves through the body of the Expanse, Tormor Falls is an incredible multi-level series of waterfalls that cascade\ndown the eastern side of Orencleft Mountain for hundreds\nof feet." }, "geometry": { "type": "Point", "coordinates": [ -2.938769228333478, -1.974436433942806 ] } },
{ "type": "Feature", "properties": { "Name": "The Mirescar", "Type": null, "Population": null, "Info": "Surrounded by myths in Syngornian folklore, the Mirescar is an extremely dense and seemingly corrupted forest that allows nearly no\nsunlight to enter." }, "geometry": { "type": "Point", "coordinates": [ -4.053192233174841, -2.820459821873817 ] } },
{ "type": "Feature", "properties": { "Name": "Wrettis", "Type": null, "Population": null, "Info": "A relic of the Age of Arcanum, Wrettis is the ruined\ntower of a powerful mage driven mad by the seductive\nwhispers of beings from the beyond." }, "geometry": { "type": "Point", "coordinates": [ -0.825447972854888, -3.405901057464678 ] } },
{ "type": "Feature", "properties": { "Name": "The Ashen Gorge", "Type": null, "Population": null, "Info": "Once home to Thordak, the Cinder King, the Ashen Gorge (otherwise known as the Dragon's Throne) stands tall with blazing twin peaks as a site of supernatural power." }, "geometry": { "type": "Point", "coordinates": [ 0.489623289288397, -1.92058278912584 ] } },
{ "type": "Feature", "properties": { "Name": "Cavern of Axiom", "Type": null, "Population": null, "Info": "The Cavern of Axiom is a lost shrine to the Knowing\nMistress spoken of only in riddles. Hidden by ever-shifting\nillusions, the entrance to this cavern opens only to\nthose who are expected by fate." }, "geometry": { "type": "Point", "coordinates": [ -1.07734405345036, -1.24480640739039 ] } },
{ "type": "Feature", "properties": { "Name": "Scar of the Cinder King", "Type": null, "Population": null, "Info": "Corrupted by the destruction done by Thordak, this area east of Emon radiates an invisible power." }, "geometry": { "type": "Point", "coordinates": [ -7.206503434519006, 3.207741951097072 ] } },
{ "type": "Feature", "properties": { "Name": "Sepesca", "Type": "Ruins", "Population": null, "Info": "Established after the Calamity, Sepesca—meaning \"Nature's End\" to the Ki'Nau people—was established as a holy burial temple dedicated to the Wild Mother. The area was raided by goblins and the temple fell into ruin." }, "geometry": { "type": "Point", "coordinates": [ 10.583292176051156, 5.649984818903118 ] } },
{ "type": "Feature", "properties": { "Name": "The Wuyun Gate", "Type": null, "Population": null, "Info": "Standing roughly twenty feet tall and fifteen feet wide, the Wuyun Gate opens for travelers granted passage to enter or exit the Dwendalian Empire." }, "geometry": { "type": "Point", "coordinates": [ 21.402962760812496, 0.165393285650817 ] } },
{ "type": "Feature", "properties": { "Name": "Herethis Mines", "Type": null, "Population": null, "Info": "A bountiful vein of precious platinum lead to the construction of the vast Herethis Mines." }, "geometry": { "type": "Point", "coordinates": [ 19.804215431281481, 3.729637621464059 ] } },
{ "type": "Feature", "properties": { "Name": "Deepriver Mine", "Type": null, "Population": null, "Info": "Established around a plentiful source of iron and copper within a dry, subterranean riverbed, the Deepriver Mine is one of the Kryn Dynasty's most productive mining operations." }, "geometry": { "type": "Point", "coordinates": [ 30.714555714129862, 4.121182685036509 ] } },
{ "type": "Feature", "properties": { "Name": "Ghor Veles", "Type": null, "Population": null, "Info": "Meaning \"Vault of Shadows,\" Ghor Veles hides a vast dungeon beneath its ruins." }, "geometry": { "type": "Point", "coordinates": [ 33.364331380671608, 5.43200746308883 ] } },
{ "type": "Feature", "properties": { "Name": "Olc Skerry", "Type": null, "Population": null, "Info": "Legends say the people of Olc Skerry were either slaughtered by outlanders or claimed by contagion. Sages suggest the inhabitants journeyed into the mainlands. Either way, explorers return from Olc Skerry with legends of pernicious phantoms." }, "geometry": { "type": "Point", "coordinates": [ 33.060865452381734, 8.418556293955833 ] } },
{ "type": "Feature", "properties": { "Name": "Blooming Grove", "Type": null, "Population": null, "Info": "Deep in the Savalirwood, the centuries-old Blooming Grove hosts a small temple that has held back the curse that darkens the forest." }, "geometry": { "type": "Point", "coordinates": [ 24.133045874227118, 10.516912163964003 ] } },
{ "type": "Feature", "properties": { "Name": "Molaesmyr", "Type": "Ruins", "Population": null, "Info": "Once a metropolis filled with erudite scholars and beautiful elven architecture, the city of Molaesmyr lies in ruin under a perpetual fog." }, "geometry": { "type": "Point", "coordinates": [ 24.406905370489319, 11.977989584563268 ] } },
{ "type": "Feature", "properties": { "Name": "Uraliss", "Type": null, "Population": null, "Info": "The small town of Uraliss was Uthodurn's first attempt to expand beyond its mountain halls. However, the settlement was beset by orcs and was quickly abandoned." }, "geometry": { "type": "Point", "coordinates": [ 27.656134185517431, 13.454718322094434 ] } },
{ "type": "Feature", "properties": { "Name": "Cinderrest Sanctum", "Type": null, "Population": null, "Info": "Hidden along the eastern slopes of Kravaraad is a cavern of onyx, where a pool of uncooling lava sits at the heart of the black stone grotto. Black iron adornments and supports honor the legend of Melora granting stone and ore to Moradin the All-Hammer." }, "geometry": { "type": "Point", "coordinates": [ 27.001832037690665, 14.795889692978742 ] } },
{ "type": "Feature", "properties": { "Name": "Kravaraad", "Type": null, "Population": null, "Info": "The volcano of Kravaraad looms in defiance against the frost and cold of the Greying Wildlands." }, "geometry": { "type": "Point", "coordinates": [ 26.445231115557611, 15.066295105504311 ] } },
{ "type": "Feature", "properties": { "Name": "Mutalos", "Type": null, "Population": null, "Info": "At the dawn of every day, the enivonment of Mutalos suddently changes, shifting from desert to forest to mountainous to swamp without any discernible pattern. The region is avoided by the local wildfolk at all costs." }, "geometry": { "type": "Point", "coordinates": [ 17.852457659861461, 19.539826984988576 ] } },
{ "type": "Feature", "properties": { "Name": "Fortress of the Dead Jarl", "Type": null, "Population": null, "Info": "From the outside, the Fortress of the Dead Jarl is an enormous fairy-tale castle made of ice. Inside the castle holds horrors of an entirely different story..." }, "geometry": { "type": "Point", "coordinates": [ 18.926184261423174, 19.373044084562153 ] } },
{ "type": "Feature", "properties": { "Name": "Aeor Crash Site", "Type": null, "Population": null, "Info": "While pieces of Aeor were thrown all over Eiselcross, the city's main crash initially created a three-mile-diameter crater in the center of Foren." }, "geometry": { "type": "Point", "coordinates": [ 18.753480074591085, 18.650647143070287 ] } },
{ "type": "Feature", "properties": { "Name": "Shattengrod", "Type": "Ruins", "Population": null, "Info": "The giant sinkhole that once was Shattengrod has been excavated heavily, leaving the pit as a spiraling subterranean city with broken relics and forgotten secrets." }, "geometry": { "type": "Point", "coordinates": [ 19.043623108469038, 7.132758202972473 ] } },
{ "type": "Feature", "properties": { "Name": "The Pallid Grove", "Type": null, "Population": null, "Info": "Once a beautiful, untouched woodland, the Pallid Grove was home to reclusive elves and protected by illusory magic. During the Calamity, the forest was drained of life and transformed into the spectral valley it is today." }, "geometry": { "type": "Point", "coordinates": [ 12.573630829205785, 7.691332887240797 ] } },
{ "type": "Feature", "properties": { "Name": "Draconia", "Type": "Ruins", "Population": null, "Info": "The once-proud nation of Draconia lies in ruins at the bottom of the Dreemoth Ravine. Originally the home of dragonborn society in Wildemount, Draconia was attacked by the Chroma Conclave, sundering the floating islands and killing many inhabitants." }, "geometry": { "type": "Point", "coordinates": [ 26.419572207799426, -0.987299221337544 ] } },
{ "type": "Feature", "properties": { "Name": "The Miskath Pit", "Type": null, "Population": null, "Info": "An arcane sinkhole of unknown depth and origin, the Miskath Pit is filled with psychedlic sights and sounds that madden and derange the few surviving explorers." }, "geometry": { "type": "Point", "coordinates": [ 32.310265300369871, 0.086427380223772 ] } },
{ "type": "Feature", "properties": { "Name": "Incanter's Rest", "Type": null, "Population": null, "Info": "The Calamity-era battlefield of Incanter's Rest is now a massive graveyard haunted by the undead spirts of unnameable horrors. There are few landmarks apart from the gigantic skeletal remains of three monstrous titans." }, "geometry": { "type": "Point", "coordinates": [ 32.510602157096393, 1.969396457223383 ] } },
{ "type": "Feature", "properties": { "Name": "Dumaran", "Type": null, "Population": null, "Info": "The fortress of Dumaran is home to hobgoblin survivors of the Calamity. Empowered by the Spider Queen that lured them to Dumaran, the hobgoblins plan to seek punishment for the Kryn for their insolence." }, "geometry": { "type": "Point", "coordinates": [ 30.452461690594156, 2.219570807865106 ] } },
{ "type": "Feature", "properties": { "Name": "Mythburrow", "Type": null, "Population": null, "Info": "Locals tell stories of a monstrous, ancient being that lives in the Mythburrow. Tales of a bellowing roar that shakes the valley and sightings of an immense white-scaled dragon have been told for centuries." }, "geometry": { "type": "Point", "coordinates": [ 30.711517970842674, 15.320910420948497 ] } },
{ "type": "Feature", "properties": { "Name": "Vergesson Sanatorium", "Type": null, "Population": null, "Info": "Once a vast prison known as the Archevault, the Vergesson Sanitorium is run by the crown and treats patients of physical and mental ailments. However, the pleasant mansions hides much darker secrets." }, "geometry": { "type": "Point", "coordinates": [ 22.311186323331928, 10.640626957798847 ] } },
{ "type": "Feature", "properties": { "Name": "Rastum Den", "Type": null, "Population": null, "Info": "The moderately sized encampment of Rastum Den is nestled in a small valley elevated in the mountains. The area's dizzying heights and tumultuous weather make it all but inaccessible to those without a griffon rider's prowess." }, "geometry": { "type": "Point", "coordinates": [ 21.026267173301292, 10.269559676376769 ] } },
{ "type": "Feature", "properties": { "Name": "Diver's Grave", "Type": null, "Population": null, "Info": "Deep beneath the waves of the open Lucidian Ocean lies a terrifying graveyard of wrecked ships across the ocean floor. Each salvage ship that tries to reclaim cargo from the Diver's Grave only adds another corpse to its hungry sands." }, "geometry": { "type": "Point", "coordinates": [ 9.453105183409004, -1.555071945556393 ] } }
]
}
