{
"type": "FeatureCollection",
"name": "exandria_cities",
"crs": { "type": "name", "properties": { "name": "urn:ogc:def:crs:OGC:1.3:CRS84" } },
"features": [
{ "type": "Feature", "properties": { "Name": "Tussoa", "Type": "City", "Population": "15,110", "Info": "Once a humble fishing village, Tussoa has blossomed into a respectable city but still boasts a relaxed way of life." }, "geometry": { "type": "Point", "coordinates": [ 15.365609889578996, 3.221950919745557 ] } },
{ "type": "Feature", "properties": { "Name": "Port Damali", "Type": "City", "Population": "82,110", "Info": "As the unofficial capital of free trade outside the empire, Port Damali is a colorful confluence of cultures. Trade routes splinter from all sides of the city to ensure rapid transport of goods throughout Wildemount and beyond." }, "geometry": { "type": "Point", "coordinates": [ 15.146337252369012, 1.206863139815492 ] } },
{ "type": "Feature", "properties": { "Name": "Palma Flora", "Type": "Settlement", "Population": "1,780", "Info": "A vacation destination for merchants from nearby ports, Palma Flora is famous for its annual shark hunting tournament." }, "geometry": { "type": "Point", "coordinates": [ 14.797721515235093, -0.354135988879641 ] } },
{ "type": "Feature", "properties": { "Name": "Gwardan", "Type": "City", "Population": "18,900", "Info": "Known for its sprawling mines of precious metals and stones, Gwardan is a cultural center for elves. The city is renowned for its smiths that use a unique style of metalworking called \"steamcasting.\"" }, "geometry": { "type": "Point", "coordinates": [ 13.167887432074034, 4.916178992568307 ] } },
{ "type": "Feature", "properties": { "Name": "Vol'antim", "Type": "Settlement", "Population": "3,890", "Info": "The hidden cliffside sttlement of Vol'antim is nestled deep within the heart of the Cyrios Mountains. The community is home to aarakocra who live in relative seclusion." }, "geometry": { "type": "Point", "coordinates": [ 17.129228037468256, 5.004998288653362 ] } },
{ "type": "Feature", "properties": { "Name": "Pride's Call", "Type": "City", "Population": "16,090", "Info": "Within the rolling hills of the Zemni Fields, the city of Pride's Call became the center of hilldwarf culture in Wildemount after the Calamity." }, "geometry": { "type": "Point", "coordinates": [ 17.61440344233295, 6.479953724266093 ] } },
{ "type": "Feature", "properties": { "Name": "Kamordah", "Type": "City", "Population": "7,440", "Info": "Kamordah was built within the Bromkiln Hills by a collection of zealous followers of Desirat the Twilight Pheonix. Now the city boasts a carefully guarded industry for farming exotic herbs and fauna, made possible by geothermal activity." }, "geometry": { "type": "Point", "coordinates": [ 18.942251918804782, 5.170424227611794 ] } },
{ "type": "Feature", "properties": { "Name": "Deastok", "Type": "City", "Population": "10,090", "Info": "The sister city of Kamordah, Deastok is appears unusually affluent for its size due to the presence of the Truscan family." }, "geometry": { "type": "Point", "coordinates": [ 18.92448805958778, 3.729886269232033 ] } },
{ "type": "Feature", "properties": { "Name": "Felderwin", "Type": "Settlement", "Population": "8,180", "Info": "As the heart of halfling society in Wynandir, Felderwin is surrounded by fertile farmland that has been cultivated by the halfling community for over seven centuries." }, "geometry": { "type": "Point", "coordinates": [ 24.239212689078279, 4.287227352165668 ] } },
{ "type": "Feature", "properties": { "Name": "Grimgolir", "Type": "City", "Population": "19,090", "Info": "The dwarven stronghold of Grimgolir sits at the core of an immense network of tunnels carved throughout the southern Dunrock Mountains. The tribulations of the city have shaped the ideology to which its dwarven citizens cling: to succeed is to struggle." }, "geometry": { "type": "Point", "coordinates": [ 26.214331785770462, 8.370694489677039 ] } },
{ "type": "Feature", "properties": { "Name": "Hupperdook", "Type": "City", "Population": "12,090", "Info": "The smoke-stacked city of Hupperdook is the heart of industry in the empire, manufacturing technological marvels and large-scale weapons of war for the Dwendalian Empire." }, "geometry": { "type": "Point", "coordinates": [ 23.791785485049875, 7.455855740000753 ] } },
{ "type": "Feature", "properties": { "Name": "Bladegarden", "Type": "City", "Population": "9,910", "Info": "Acting as both a training complex for the Righteous Brand and the core of orcish society in Western Wynandir, Bladegarden is a large military complex whose denizens are filled with a sense of honor and pride." }, "geometry": { "type": "Point", "coordinates": [ 25.831298571403455, 6.425551905413726 ] } },
{ "type": "Feature", "properties": { "Name": "Ashguard Garrison", "Type": "Fortress", "Population": "5,270", "Info": "A partner stronghold to the northern Rockguard Garrison, the Ashguard Garrison sits atop a steep mountain pass on the south side of the Brokenveil Bluffs." }, "geometry": { "type": "Point", "coordinates": [ 26.433049302379828, 5.828242139241483 ] } },
{ "type": "Feature", "properties": { "Name": "Rockguard Garrison", "Type": "Fortress", "Population": "6,800", "Info": "The Rockguard Garrison was constructed in a joint effort between the Crown and Grimgolir as a symbol of politcal union. The fortress has held strong for generations without being breached." }, "geometry": { "type": "Point", "coordinates": [ 26.796514515578188, 7.437450022589183 ] } },
{ "type": "Feature", "properties": { "Name": "Urzin", "Type": "Settlement", "Population": "5,930", "Info": "A uniquely mobile settlement with its permanent dwellings built on the backs of dozens of horizonback tortoises, Urzin is home to swamp hunters, scouts, and trappers that know the Brokenveil Marsh like no one else." }, "geometry": { "type": "Point", "coordinates": [ 27.708161321801473, 6.929375892952385 ] } },
{ "type": "Feature", "properties": { "Name": "Jigow", "Type": "City", "Population": "13,210", "Info": "By negotiations sparked by the Kryn Dynasty, the coastal city of Jigow was formed from competing orc and goblin clans. It rose to become an important source for fishing commerce for the dynasty." }, "geometry": { "type": "Point", "coordinates": [ 29.63026640114315, 7.340165137345728 ] } },
{ "type": "Feature", "properties": { "Name": "Bazzoxan", "Type": "Town", "Population": "2,610", "Info": "Bazzoxan is perpetually locked in a stalemate between the Kryn Dynasty forces and the abyssal incursion from within the ruins of a temple to the Betrayer Gods." }, "geometry": { "type": "Point", "coordinates": [ 30.908154023567118, 5.546015356425727 ] } },
{ "type": "Feature", "properties": { "Name": "New Haxon", "Type": "City", "Population": "1,250", "Info": "The stalwart outpost of New Haxon is garrisoned by agents of the Cerberus Assembly, along with a contingent of allied mercenaries from nearby Draconia." }, "geometry": { "type": "Point", "coordinates": [ 33.006509893568825, 0.736450473419542 ] } },
{ "type": "Feature", "properties": { "Name": "Rotthold", "Type": "City", "Population": "8,800", "Info": "The lawless harbor city of Rotthold has no official governing body. Many outlanders view the crime-ridden settlement as little more than a collection of degenerate slums." }, "geometry": { "type": "Point", "coordinates": [ 31.991749435799083, -0.660232957514883 ] } },
{ "type": "Feature", "properties": { "Name": "Igrathad", "Type": "The Many Hosts", "Population": "6,750", "Info": "Once a battleground where regional factions feuded and warred over resources and glory, the Many Hosts of Igrathad is a scattered network of seven villages with robust communities of goblinkin, orcs and giants." }, "geometry": { "type": "Point", "coordinates": [ 26.989557704412142, 1.84391607148184 ] } },
{ "type": "Feature", "properties": { "Name": "Charis", "Type": "Village", "Population": "950", "Info": "The hidden hamlet of Charis was founded by an unlikely alliance between halflings and dragonborn. The village takes no value in gold or jewels, but instead, emphasize community and share equally." }, "geometry": { "type": "Point", "coordinates": [ 27.749517806539615, -0.279420225551264 ] } },
{ "type": "Feature", "properties": { "Name": "Xarzith Kitril", "Type": "City", "Population": "9,110", "Info": "Built shortly after the fall of Draconia, the fortified stone city of Xarzith Kitril continues to grow in population and industry." }, "geometry": { "type": "Point", "coordinates": [ 26.2995427979514, -1.803781394610986 ] } },
{ "type": "Feature", "properties": { "Name": "Trostenwald", "Type": "City", "Population": "8,900", "Info": "On the banks of the Ustaloch, the city of Trostenwald thrives on its booming brewing economy. The major brewing families hold a lot of power and are constantly competing with one another." }, "geometry": { "type": "Point", "coordinates": [ 22.062862374694081, 2.129803180755979 ] } },
{ "type": "Feature", "properties": { "Name": "Alfield", "Type": "Town", "Population": "3,410", "Info": "Supplemented by mines in the nearby hills, the small town of Alfield is often regarded as a stop on the route to more important business elsewhere." }, "geometry": { "type": "Point", "coordinates": [ 22.242721449266345, 3.017996141606607 ] } },
{ "type": "Feature", "properties": { "Name": "Zadash", "Type": "City", "Population": "89,210", "Info": "Once the capital of the Julous Dominion, Zadash sits at the central crossroads of the southern region of the empire. The city is a bastion of law, civilization, and military might in the Marrow Valley." }, "geometry": { "type": "Point", "coordinates": [ 21.755880682600147, 4.636727812756936 ] } },
{ "type": "Feature", "properties": { "Name": "Berleben", "Type": "Town", "Population": "3,230", "Info": "The marsh town of Berleben is nestled deep in the Labenda Swamp. Once promising economic boom in cultivated herbs, the town has floundered due to the instability of the marsh." }, "geometry": { "type": "Point", "coordinates": [ 22.308503240429484, 6.266006775317368 ] } },
{ "type": "Feature", "properties": { "Name": "Druvenlode", "Type": "City", "Population": "12,110", "Info": "Established in the early years following the Calamity, Druvenlode is the primary source of precious metal in Western Wynandir." }, "geometry": { "type": "Point", "coordinates": [ 21.340372913102279, 8.094574033468719 ] } },
{ "type": "Feature", "properties": { "Name": "Rexxentrum", "Type": "City", "Population": "205,200", "Info": "Rexxentrum is the majestic capital of the Dwendalian Empire and the largest city in Wildemount. It is the cultural and military center of Western Wynandir." }, "geometry": { "type": "Point", "coordinates": [ 21.405322023364494, 8.861750703403498 ] } },
{ "type": "Feature", "properties": { "Name": "Odessloe", "Type": "City", "Population": "6,970", "Info": "Adjacent to the clear waters of the Erdeloch, Odessloe is a prominent fishing and logging town, supplying Rexxentrum and the surrounding townships with fresh fish and lumber." }, "geometry": { "type": "Point", "coordinates": [ 21.005080070381162, 9.23756734996344 ] } },
{ "type": "Feature", "properties": { "Name": "Nogvurot", "Type": "City", "Population": "15,270", "Info": "A major stop along the Glory Run Road heading eastward from the capital, Nogvurot hosts travelers making their way through the empire." }, "geometry": { "type": "Point", "coordinates": [ 23.359901657836563, 9.130151513760572 ] } },
{ "type": "Feature", "properties": { "Name": "Shadycreek Run", "Type": "City", "Population": "14,770", "Info": "Originally comprised of a patchwork of makeshift, impoverished societies run by cruel slumlords, Shadycreek Run is now known as a hive of criminal activity and savage humanity given free reign." }, "geometry": { "type": "Point", "coordinates": [ 23.787344520245945, 9.858469741658151 ] } },
{ "type": "Feature", "properties": { "Name": "Boroftkrah", "Type": "Settlement", "Population": "3,060", "Info": "The residents of the remote settlement of Boroftkrah value deeds done in service to the Boroftkrah orc clan. A council of elder warriors governs the town." }, "geometry": { "type": "Point", "coordinates": [ 27.072825794492594, 10.964755708443164 ] } },
{ "type": "Feature", "properties": { "Name": "Palebank Village", "Type": "Settlement", "Population": "690", "Info": "Along the cold shore of the Frigid Depths, Palebank Village marks the first surviving Uthodurn outpost beyond the mountains." }, "geometry": { "type": "Point", "coordinates": [ 25.87376529734383, 15.849816993121104 ] } },
{ "type": "Feature", "properties": { "Name": "Allowak's Sanctuary", "Type": "Settlement", "Population": "532", "Info": "Oops, all Yetis." }, "geometry": { "type": "Point", "coordinates": [ 18.495842435878554, 17.500375578701611 ] } },
{ "type": "Feature", "properties": { "Name": "Balenpost", "Type": "Outpost", "Population": "205", "Info": "The inhabitants of Balenpost are dedicated to planning and executing expeditions to uncover Aeorian items on the island." }, "geometry": { "type": "Point", "coordinates": [ 19.50838241124821, 16.123676489383232 ] } },
{ "type": "Feature", "properties": { "Name": "Syrinlya", "Type": "Outpost", "Population": "182", "Info": "Syrinlya is a collection of yurts filled with mercenary explorers from Uthodurn looking to get rich." }, "geometry": { "type": "Point", "coordinates": [ 21.663730662912254, 17.268705248079772 ] } },
{ "type": "Feature", "properties": { "Name": "Uthodurn", "Type": "City", "Population": "26,240", "Info": "Hidden among the icy peaks of the Flotket Alps, the dwarven stronghold of Uthodurn is a bastion of dwarven culture. The hardy folks of the city have endured the freezing temperatures and continuous snowfall for centuries." }, "geometry": { "type": "Point", "coordinates": [ 26.685721695721472, 14.036423031384674 ] } },
{ "type": "Feature", "properties": { "Name": "Bysaes Tyl", "Type": "City", "Population": "19,090", "Info": "The rustic elven city of Bysaes Tyl is built synergistically within the tangled boreal forests." }, "geometry": { "type": "Point", "coordinates": [ 20.046479313363573, 11.931405714168537 ] } },
{ "type": "Feature", "properties": { "Name": "Icehaven", "Type": "City", "Population": "5,090", "Info": "Icehaven is home to the dozen or so ships in the region outfitted to wander the ice floes of the Frigid Depths. The city is a central trading post for hunters and adventurers who brave the Saltwallow Bog or the frozen north toward Eiselcross." }, "geometry": { "type": "Point", "coordinates": [ 17.361175928391962, 9.90484544182778 ] } },
{ "type": "Feature", "properties": { "Name": "Yrrosa", "Type": "Town", "Population": "3,220", "Info": "Comprised of huble homesteads and numerous inns, the town of Yrrosa is a comfortable stop among the surrounding frigid fields." }, "geometry": { "type": "Point", "coordinates": [ 19.190113266943474, 8.299436665090351 ] } },
{ "type": "Feature", "properties": { "Name": "Blumenthal", "Type": "Town", "Population": "3,850", "Info": "A sprawling collection of rural farmsteads connected by administration buildings, Blumenthal is Rexxentrum's main source of produce and meat." }, "geometry": { "type": "Point", "coordinates": [ 21.783636712627203, 8.444878262429619 ] } },
{ "type": "Feature", "properties": { "Name": "Othe", "Type": "City", "Population": "8,320", "Info": "Othe is the smallest of the coastal Clovis Concord domains. Often left to their own devices, the denizens of Othe are quite reserved and are less hospitable to outsiders who don't go out of their way to engage with the locals." }, "geometry": { "type": "Point", "coordinates": [ 17.857592525417321, 2.263749155660284 ] } },
{ "type": "Feature", "properties": { "Name": "Feolinn", "Type": "City", "Population": "12,700", "Info": "Commonly referred to as the Garden City for its rural aesthetic, Feolinn acts as a harbor for the plentiful fishing around the Mother's Sigh Reef." }, "geometry": { "type": "Point", "coordinates": [ 18.312051257052531, -0.081080260985214 ] } },
{ "type": "Feature", "properties": { "Name": "Port Zoon", "Type": "City", "Population": "19,120", "Info": "Port Zoon is the industrial center of the Clovis Concord. What the city lacks in liveliness and splendor, it makes up for in manufacturing and cutting-edge science." }, "geometry": { "type": "Point", "coordinates": [ 18.489689849222639, -1.465180958310677 ] } },
{ "type": "Feature", "properties": { "Name": "Nicodranas", "Type": "City", "Population": "31,900", "Info": "The easternmost city of the Menagerie Coast, Nicodranas acts as an embassy state between the Clovis Concord and Dwendalian Empire." }, "geometry": { "type": "Point", "coordinates": [ 20.269036414126614, -2.205341759019464 ] } },
{ "type": "Feature", "properties": { "Name": "Brokenbank", "Type": "Settlement", "Population": "1,520", "Info": "Despite its important role in the business of the coast, Brokenback lacks the strong cultural identity of the mainland city-states. The settlement is not recognized as an official city by the concord." }, "geometry": { "type": "Point", "coordinates": [ 13.831857930362128, -2.519910099320744 ] } },
{ "type": "Feature", "properties": { "Name": "Darktow", "Type": "Town", "Population": "1,306", "Info": "The eerie, fog-shrouded town of Darktow was originally established as a sanctuary for sailors traveling to Wildemount from Marquet or Tal'Dorei. The town is now the center of piracy in the Lucidian Ocean." }, "geometry": { "type": "Point", "coordinates": [ 8.318400125882189, -5.077905826570404 ] } },
{ "type": "Feature", "properties": { "Name": "Talonstadt", "Type": "Settlement", "Population": "1,810", "Info": "Home to refugees of the ravenite resistance, the settlement of Talonstadt is not viewed favorably in the eyes of the Crown. Crime, monsters, and the residents themselves trouble the community in this shantytown." }, "geometry": { "type": "Point", "coordinates": [ 25.423516230262898, 4.63004323552603 ] } },
{ "type": "Feature", "properties": { "Name": "Asarius", "Type": "City", "Population": "48,025", "Info": "Known as the City of Beasts, Asarius is a cluttered sprawl of roughshod homesteads, mud huts, and military fortifications. The city is a cultural hub for the wilder folk of the Kryn Dynasty." }, "geometry": { "type": "Point", "coordinates": [ 27.749101466089972, 4.343601005651248 ] } },
{ "type": "Feature", "properties": { "Name": "Rosohna", "Type": "City", "Population": "113,190", "Info": "Built on the remains of Ghor Dranas, Rosohna is the center of the powerful Kryn society. A network of caves and tunnels make up an unseen level of the city beneath the surface." }, "geometry": { "type": "Point", "coordinates": [ 31.589055700166924, 3.710023360241677 ] } },
{ "type": "Feature", "properties": { "Name": "Tomb of the Worm", "Type": "Settlement", "Population": "345", "Info": "A clan of wildfolk found the exposed body of Quajath the Undermaw poking through the wall of an icy cave. The people consumed the exposed meat and found that it regrew. They invite others to partake and are fully under the sway of the Undermaw." }, "geometry": { "type": "Point", "coordinates": [ 16.202392514814502, 18.131547701506467 ] } },
{ "type": "Feature", "properties": { "Name": "Vurmas", "Type": "Settlement", "Population": "193", "Info": "The floating outpost of Vurmas is made of three sailing ships tied together and is governed by the Kryn Dynasty. The settlement is kept secret and was established to make allies of Eiselcross's wildfolk." }, "geometry": { "type": "Point", "coordinates": [ 14.651015476528702, 18.600316208622104 ] } },
{ "type": "Feature", "properties": { "Name": "Whitestone", "Type": "City", "Population": "4,230", "Info": "Founded by the de Rolo family, the city of Whitestone gets its name from the miraculous mineral that is the city's chief export." }, "geometry": { "type": "Point", "coordinates": [ 3.65772772774102, 8.679561751338802 ] } },
{ "type": "Feature", "properties": { "Name": "Lyrengorn", "Type": "City", "Population": "5,430", "Info": "Meaning \"mountain city\" in elvish, Lyrengorn is the last bastion of safety before the endless\nice of the Neverfields to the north." }, "geometry": { "type": "Point", "coordinates": [ -1.819708841143277, 10.962261291939491 ] } },
{ "type": "Feature", "properties": { "Name": "Terrah", "Type": "Village", "Population": "673", "Info": "Sheltered within a cauldron-like valley miles deep into the northern mountain range, the village of Terrah is home to the Ashari people that watch over the rift to the Elemental Plane of Earth." }, "geometry": { "type": "Point", "coordinates": [ -3.903497348715975, 8.757736393140199 ] } },
{ "type": "Feature", "properties": { "Name": "Kraghammer", "Type": "City", "Population": "43,550", "Info": "Heralded as the true living center of dwarven culture\non the continent, the stronghold of Kraghammer is an autonomous city-state built upon rich veins of platinum and mithral." }, "geometry": { "type": "Point", "coordinates": [ -3.774943493309233, 6.624437279093293 ] } },
{ "type": "Feature", "properties": { "Name": "Jorenn Village", "Type": "Town", "Population": "1,873", "Info": "Silver veins in the nearby rocky hills caused a population boom for the once tiny pioneer town of Jorenn Village." }, "geometry": { "type": "Point", "coordinates": [ -0.326573182736667, 6.62270006483104 ] } },
{ "type": "Feature", "properties": { "Name": "Westruun", "Type": "City", "Population": "26,205", "Info": "The city of Westruun is the center of Tal’Dorei, a\ncrossroads of culture along the Silvercut Roadway that\nwelcomes adventurers, traders, and vagabonds of all\nkinds." }, "geometry": { "type": "Point", "coordinates": [ 0.264079666429414, 4.075943956367879 ] } },
{ "type": "Feature", "properties": { "Name": "Turst Fields", "Type": "Town", "Population": "1,390", "Info": "The small farming community of Turst Fields is a hot spot for trade caravans, as it is one of the main sources for food and produce in all of Tal'Dorei." }, "geometry": { "type": "Point", "coordinates": [ 2.527669850145307, 5.345847582074957 ] } },
{ "type": "Feature", "properties": { "Name": "Drynna", "Type": "Town", "Population": "2,230", "Info": "Thriving on bountiful wildlife around Mooren Lake, the town of Drynna is responsible for most of the freshwater fish supply in eastern Tal'Dorei." }, "geometry": { "type": "Point", "coordinates": [ 4.719165641977707, 4.194943133332221 ] } },
{ "type": "Feature", "properties": { "Name": "Zephrah", "Type": "Village", "Population": "410", "Info": "At the top of one of a mountain in the Summit Peaks, Zephrah is the tribal home of the Air Ashari people who keep watch over a gate into the Elemental Plane of Air." }, "geometry": { "type": "Point", "coordinates": [ 2.830813738908497, 1.865338807650705 ] } },
{ "type": "Feature", "properties": { "Name": "Stilben", "Type": "City", "Population": "9,015", "Info": "Known as the \"Rotted Lot\" by passing sailors and merchants, Stilben is the largest port city on the eastern coast of Tal'Dorei and is the focal point for all trade to the East." }, "geometry": { "type": "Point", "coordinates": [ 3.654253299216511, -0.122034308366938 ] } },
{ "type": "Feature", "properties": { "Name": "Kymal", "Type": "City", "Population": "7,991", "Info": "The city of Kymal stands as the grumbling ghost of a\ngold rush mining center now become a haven for gamblers\nand criminals." }, "geometry": { "type": "Point", "coordinates": [ -1.870088054748624, 2.332649444196811 ] } },
{ "type": "Feature", "properties": { "Name": "Emon", "Type": "Metropolis", "Population": "287,550", "Info": "Emon is the cultural heart of human civilization on Tal'Dorei and is the nexus of politics, justice, business, industry, and education within the realm." }, "geometry": { "type": "Point", "coordinates": [ -7.499810214165592, 3.249458868744746 ] } },
{ "type": "Feature", "properties": { "Name": "Emerald Outpost", "Type": "Town", "Population": "1,456", "Info": "Originally established by the elves of Syngorn as a\nhidden outpost to keep watch over the growing empire\nof Drassig, the Emerald Outpost now stands as a trade post between Emon and Syngorn." }, "geometry": { "type": "Point", "coordinates": [ -5.523449648267054, 0.814324178987533 ] } },
{ "type": "Feature", "properties": { "Name": "Syngorn", "Type": "City", "Population": "37,030", "Info": "Founded by the sorceress Yenlara in the wake of the\nDivergence, Syngorn marked the first major point of elven\ncivilization on Tal’Dorei following its calamitous destruction." }, "geometry": { "type": "Point", "coordinates": [ -2.893307255215738, -1.471849790137657 ] } },
{ "type": "Feature", "properties": { "Name": "Bronbog", "Type": "Village", "Population": "740", "Info": "A shadow of a greater time, Bronbog is now only recognized for its access to the rare swamp fungus, queenscap." }, "geometry": { "type": "Point", "coordinates": [ 0.054745347827915, -2.441215348474934 ] } },
{ "type": "Feature", "properties": { "Name": "Hdar-Fye", "Type": "City", "Population": null, "Info": "Hdar-Fye is the necropolis of Princ Hdar and swears fealty to the Iron Emperor in Tz'Arrm as a entity underneath the Iron Authority." }, "geometry": { "type": "Point", "coordinates": [ -4.371676592393195, -9.060001687659563 ] } },
{ "type": "Feature", "properties": { "Name": "Ezordam-Haar", "Type": "City", "Population": null, "Info": "Known as the eyrie of the red pegasi" }, "geometry": { "type": "Point", "coordinates": [ -3.089612466850344, -8.875856975860726 ] } },
{ "type": "Feature", "properties": { "Name": "Tz'Arrm", "Type": "City", "Population": "47,400", "Info": "Ruled by the Iron Emperor, the hobgoblin city of Tz'Arrm is meticulously ordered and hellishly hot." }, "geometry": { "type": "Point", "coordinates": [ -2.287019477689369, -10.779843807290213 ] } },
{ "type": "Feature", "properties": { "Name": "Rybad-Kol", "Type": "City", "Population": null, "Info": "Rybad-Kol, the city of the Forge Lords, is a hobgoblin city under the rule of the Iron Authority." }, "geometry": { "type": "Point", "coordinates": [ -1.133509207553267, -10.10059303074922 ] } },
{ "type": "Feature", "properties": { "Name": "Ortem-Vellak", "Type": "City", "Population": null, "Info": "Inside the trunk of a petrified elven tree, the city of Ortem-Vellak is governed under the mighty hobgoblin empire, the Iron Authority." }, "geometry": { "type": "Point", "coordinates": [ 0.476019806424307, -8.233087698827049 ] } },
{ "type": "Feature", "properties": { "Name": "Byroden", "Type": "Town", "Population": "850", "Info": "The northernmost, and second-largest community in the Mornset Countryside, Byroden borders the Gladepools and marks the first stop for any traveler endeavoring to traverse the Rifenmist." }, "geometry": { "type": "Point", "coordinates": [ -5.371737924016, -4.943335756271545 ] } },
{ "type": "Feature", "properties": { "Name": "O'Noa", "Type": "Ruins", "Population": "336", "Info": "Devastated by the Scattered War, O'Noa was once a great colony for the first human visitors of Tal'Dorei. A small community of criminals, addicts, and opportunists have settled in the derelict city of what is now called New O'Noa." }, "geometry": { "type": "Point", "coordinates": [ -7.02730319855039, 0.365591294071715 ] } },
{ "type": "Feature", "properties": { "id": null, "Info": "Founded as the capital of the Qoniira Tetrarchy long before the Calamity, the city of Niirdal-Poc lies hidden in the depths of the Rifenmist Jungle.", "Name": "Niirdal-Poc", "Population": "15,000", "Type": "City" }, "geometry": { "type": "Point", "coordinates": [ -4.052684923376876, -6.815717982743069 ] } }
]
}
