{
"type": "FeatureCollection",
"name": "wildemount_label_points",
"crs": { "type": "name", "properties": { "name": "urn:ogc:def:crs:OGC:1.3:CRS84" } },
"features": [
{ "type": "Feature", "properties": { "id": null, "name": "The Emerald Gulch", "type": "big_ocean" }, "geometry": { "type": "Point", "coordinates": [ 30.501890554068925, 9.628433932804858 ] } },
{ "type": "Feature", "properties": { "id": null, "name": "The Emerald Gulch", "type": "sm_water" }, "geometry": { "type": "Point", "coordinates": [ 27.778098807459802, 9.296841894086887 ] } },
{ "type": "Feature", "properties": { "id": null, "name": "The Emerald Gulch", "type": "sm_water" }, "geometry": { "type": "Point", "coordinates": [ 31.354555796486181, 7.307289661780943 ] } },
{ "type": "Feature", "properties": { "id": null, "name": "The Frigid Depths", "type": "big_ocean" }, "geometry": { "type": "Point", "coordinates": [ 12.169587842110598, 11.925893058204732 ] } },
{ "type": "Feature", "properties": { "id": null, "name": "The Frigid Depths", "type": "sm_water" }, "geometry": { "type": "Point", "coordinates": [ 8.936565464614196, 9.817915097785841 ] } },
{ "type": "Feature", "properties": { "id": null, "name": "The Frigid Depths", "type": "sm_water" }, "geometry": { "type": "Point", "coordinates": [ 17.013200121949495, 12.150901941620239 ] } },
{ "type": "Feature", "properties": { "id": null, "name": "Torrid Reef", "type": "big_reef" }, "geometry": { "type": "Point", "coordinates": [ 9.854364857493211, 2.804151350268481 ] } },
{ "type": "Feature", "properties": { "id": null, "name": "Mother's Sigh Reef", "type": "big_reef" }, "geometry": { "type": "Point", "coordinates": [ 16.728978374477293, 0.104044749282482 ] } },
{ "type": "Feature", "properties": { "id": null, "name": "Dragshallow Reefs", "type": "big_reef" }, "geometry": { "type": "Point", "coordinates": [ 9.268157503331778, -4.538243792763617 ] } },
{ "type": "Feature", "properties": { "id": null, "name": "Lucidian Ocean", "type": "big_ocean" }, "geometry": { "type": "Point", "coordinates": [ 7.539141872875834, -0.25123243505778 ] } },
{ "type": "Feature", "properties": { "id": null, "name": "Deep Row Reef", "type": "big_reef" }, "geometry": { "type": "Point", "coordinates": [ 12.809086773923065, -4.585614084008985 ] } },
{ "type": "Feature", "properties": { "id": null, "name": "Southern Gate Reef", "type": "sm_reef" }, "geometry": { "type": "Point", "coordinates": [ 15.035490462455376, -6.113305976672112 ] } },
{ "type": "Feature", "properties": { "id": null, "name": "Inkclaw Reef", "type": "big_reef" }, "geometry": { "type": "Point", "coordinates": [ 20.246222499445903, -5.37906646236888 ] } },
{ "type": "Feature", "properties": { "id": null, "name": "Ashkeeper Peaks", "type": "big_mountain" }, "geometry": { "type": "Point", "coordinates": [ 23.492937851755233, 0.131523219008896 ] } },
{ "type": "Feature", "properties": { "id": null, "name": "Ashkeeper Peaks", "type": "big_mountain" }, "geometry": { "type": "Point", "coordinates": [ 25.61127806338401, 2.589597238162912 ] } },
{ "type": "Feature", "properties": { "id": null, "name": "Ashkeeper Peaks", "type": "sm_mountain" }, "geometry": { "type": "Point", "coordinates": [ 25.564647932939277, -0.481329923978015 ] } },
{ "type": "Feature", "properties": { "id": null, "name": "Penumbra Range", "type": "big_mountain" }, "geometry": { "type": "Point", "coordinates": [ 31.546627524267926, 3.035914200988805 ] } },
{ "type": "Feature", "properties": { "id": null, "name": "Penumbra Range", "type": "sm_mountain" }, "geometry": { "type": "Point", "coordinates": [ 33.274440393426097, 6.257140265723806 ] } },
{ "type": "Feature", "properties": { "id": null, "name": "Penumbra Range", "type": "sm_mountain" }, "geometry": { "type": "Point", "coordinates": [ 30.587379126548583, -0.20154914130999 ] } },
{ "type": "Feature", "properties": { "id": null, "name": "Vermaloc Wildwood", "type": "big_vermaloc" }, "geometry": { "type": "Point", "coordinates": [ 29.801328356197011, 3.948532468263655 ] } },
{ "type": "Feature", "properties": { "id": null, "name": "The Brokenveil Marsh", "type": "sm_swamp" }, "geometry": { "type": "Point", "coordinates": [ 27.070135001581473, 5.827060580463423 ] } },
{ "type": "Feature", "properties": { "id": null, "name": "Lotusden Greenwood", "type": "big_forest" }, "geometry": { "type": "Point", "coordinates": [ 27.689649591774266, -1.000922806075524 ] } },
{ "type": "Feature", "properties": { "id": null, "name": "Whitedawn Lagoon", "type": "sm_water" }, "geometry": { "type": "Point", "coordinates": [ 25.058377945254524, -2.95938828475122 ] } },
{ "type": "Feature", "properties": { "id": null, "name": "Quoraska Jungle", "type": "big_forest" }, "geometry": { "type": "Point", "coordinates": [ 22.057395978780423, -2.259936328081433 ] } },
{ "type": "Feature", "properties": { "id": null, "name": "Cyrios End Forest", "type": "big_forest" }, "geometry": { "type": "Point", "coordinates": [ 19.919071425532522, -0.268163613373891 ] } },
{ "type": "Feature", "properties": { "id": null, "name": "Plumgroves", "type": "sm_forest" }, "geometry": { "type": "Point", "coordinates": [ 18.213740940699285, 0.551194393010827 ] } },
{ "type": "Feature", "properties": { "id": null, "name": "Cyrengreen Forest", "type": "big_forest" }, "geometry": { "type": "Point", "coordinates": [ 20.325419705121689, 2.389753821971648 ] } },
{ "type": "Feature", "properties": { "id": null, "name": "Cyrios Mountains", "type": "big_mountain" }, "geometry": { "type": "Point", "coordinates": [ 17.254492542980604, 4.115068648424042 ] } },
{ "type": "Feature", "properties": { "id": null, "name": "Pearlbow Wilderness", "type": "big_forest" }, "geometry": { "type": "Point", "coordinates": [ 20.898304164870396, 9.870559034736258 ] } },
{ "type": "Feature", "properties": { "id": null, "name": "Savalirwood", "type": "big_forest" }, "geometry": { "type": "Point", "coordinates": [ 24.115783165551889, 11.6957955692844 ] } },
{ "type": "Feature", "properties": { "id": null, "name": "Rime Plains", "type": "big_snow" }, "geometry": { "type": "Point", "coordinates": [ 27.246663352550417, 12.341955948303404 ] } },
{ "type": "Feature", "properties": { "id": null, "name": "Crystalsands Tundra", "type": "big_snow" }, "geometry": { "type": "Point", "coordinates": [ 24.328949476155955, 15.486159029714527 ] } },
{ "type": "Feature", "properties": { "id": null, "name": "Rime Plains", "type": "sm_snow" }, "geometry": { "type": "Point", "coordinates": [ 30.504111036469684, 14.446973265519658 ] } },
{ "type": "Feature", "properties": { "id": null, "name": "Dunrock Mountains", "type": "big_mountain" }, "geometry": { "type": "Point", "coordinates": [ 25.987649830544743, 9.850574693117181 ] } },
{ "type": "Feature", "properties": { "id": null, "name": "Silberquel Ridge", "type": "sm_mountain" }, "geometry": { "type": "Point", "coordinates": [ 22.636941885735581, 7.499083829264991 ] } },
{ "type": "Feature", "properties": { "id": null, "name": "Marrow Valley", "type": "landscape_big" }, "geometry": { "type": "Point", "coordinates": [ 24.002538563043423, 5.44735808969993 ] } },
{ "type": "Feature", "properties": { "id": null, "name": "Marrow Valley", "type": "landscape_small" }, "geometry": { "type": "Point", "coordinates": [ 24.555438681173037, 8.858019059366512 ] } },
{ "type": "Feature", "properties": { "id": null, "name": "Ounterloch", "type": "sm_water" }, "geometry": { "type": "Point", "coordinates": [ 22.631113119429973, 6.297108948963804 ] } },
{ "type": "Feature", "properties": { "id": null, "name": "Lebenda Swamp", "type": "sm_swamp" }, "geometry": { "type": "Point", "coordinates": [ 22.817633641208619, 6.695130419545009 ] } },
{ "type": "Feature", "properties": { "id": null, "name": "Marrow Valley", "type": "landscape_small" }, "geometry": { "type": "Point", "coordinates": [ 22.847610153637273, 3.432686650220453 ] } },
{ "type": "Feature", "properties": { "id": null, "name": "Zemni Fields", "type": "landscape_big" }, "geometry": { "type": "Point", "coordinates": [ 17.984753692980004, 7.989116539384336 ] } },
{ "type": "Feature", "properties": { "id": null, "name": "Zemni Fields", "type": "landscape_small" }, "geometry": { "type": "Point", "coordinates": [ 20.616025339500048, 6.470306576329709 ] } },
{ "type": "Feature", "properties": { "id": null, "name": "Cyrios Mountains", "type": "sm_mountain" }, "geometry": { "type": "Point", "coordinates": [ 19.403641947938894, 1.993814053642455 ] } },
{ "type": "Feature", "properties": { "id": null, "name": "Velvin Thicket", "type": "big_forest" }, "geometry": { "type": "Point", "coordinates": [ 16.599172674052987, 7.935824961733302 ] } },
{ "type": "Feature", "properties": { "id": null, "name": "Saltwallow Bog", "type": "sm_swamp" }, "geometry": { "type": "Point", "coordinates": [ 16.519235307576437, 8.542016657513871 ] } },
{ "type": "Feature", "properties": { "id": null, "name": "The Barren Shores", "type": "sm_reef" }, "geometry": { "type": "Point", "coordinates": [ 11.403243853076706, 9.074932434024261 ] } },
{ "type": "Feature", "properties": { "id": null, "name": "Stonecage Cliffs", "type": "landscape_big" }, "geometry": { "type": "Point", "coordinates": [ 7.088291425144139, 9.627832552153787 ] } },
{ "type": "Feature", "properties": { "id": null, "name": "Lushgut Forest", "type": "big_forest" }, "geometry": { "type": "Point", "coordinates": [ 9.186647295153813, 7.296326029920837 ] } },
{ "type": "Feature", "properties": { "id": null, "name": "Lushgut Forest", "type": "sm_forest" }, "geometry": { "type": "Point", "coordinates": [ 9.279907556043128, 5.650948569945013 ] } },
{ "type": "Feature", "properties": { "id": null, "name": "Doralle Woods", "type": "big_forest" }, "geometry": { "type": "Point", "coordinates": [ 11.684689997546247, 6.283786054551096 ] } },
{ "type": "Feature", "properties": { "id": null, "name": "Copia Wildwood", "type": "sm_forest" }, "geometry": { "type": "Point", "coordinates": [ 14.649034004385287, 3.552592699935355 ] } },
{ "type": "Feature", "properties": { "id": null, "name": "Hearthstar Peaks", "type": "sm_mountain" }, "geometry": { "type": "Point", "coordinates": [ 13.483280743268786, 1.720694718180897 ] } },
{ "type": "Feature", "properties": { "id": null, "name": "Vezdaweald", "type": "sm_forest" }, "geometry": { "type": "Point", "coordinates": [ 13.989550730953674, 1.394283805068284 ] } },
{ "type": "Feature", "properties": { "id": null, "name": "Raska Lake", "type": "sm_water" }, "geometry": { "type": "Point", "coordinates": [ 20.564399123650574, -2.855719512602037 ] } },
{ "type": "Feature", "properties": { "id": null, "name": "Gehem Basin", "type": "big_water" }, "geometry": { "type": "Point", "coordinates": [ 24.408054161731656, 1.00791986709821 ] } },
{ "type": "Feature", "properties": { "id": null, "name": "Ustaloch", "type": "sm_water" }, "geometry": { "type": "Point", "coordinates": [ 22.28305250289656, 2.047105631293474 ] } },
{ "type": "Feature", "properties": { "id": null, "name": "Fevergulf Lake", "type": "big_water" }, "geometry": { "type": "Point", "coordinates": [ 28.358292355114536, 0.974612631066159 ] } },
{ "type": "Feature", "properties": { "id": null, "name": "Sorrowseep Waters", "type": "big_water" }, "geometry": { "type": "Point", "coordinates": [ 27.419028299015306, 2.94640100415446 ] } },
{ "type": "Feature", "properties": { "id": null, "name": "Erdeloch", "type": "big_water" }, "geometry": { "type": "Point", "coordinates": [ 20.444493073935778, 9.128224011675297 ] } },
{ "type": "Feature", "properties": { "id": null, "name": "Kaltenloch", "type": "big_water" }, "geometry": { "type": "Point", "coordinates": [ 17.939788924336934, 9.474619266407055 ] } },
{ "type": "Feature", "properties": { "id": null, "name": "Far Hharom", "type": "landscape_big" }, "geometry": { "type": "Point", "coordinates": [ 34.033845374953827, 8.968349278724144 ] } },
{ "type": "Feature", "properties": { "id": null, "name": "Ebonglass Massif", "type": "sm_mountain" }, "geometry": { "type": "Point", "coordinates": [ 34.453516548957531, 7.256357346682042 ] } },
{ "type": "Feature", "properties": { "id": null, "name": "Tooth of Zehir", "type": "big_ash" }, "geometry": { "type": "Point", "coordinates": [ 35.865743356710261, 4.818267669138594 ] } }
]
}
